[{"name":"Batavia Turf","locality":"Elba","state":"NY","zipcode":"14058","streetNumber":"6465","route":"Transit Rd.","aptSuite":"","website":"www.bataviaturf.com","salesRep":"Chuck Hoover","phoneNum":"585-261-6370","email":"chuck@bataviaturf.com","coords":{"lat":43.101956,"lng":-78.111204}},{"name":"Belair Road Supply","locality":"Frankford","state":"DE","zipcode":"19945","streetNumber":"6","route":"Hickory St.","aptSuite":"","website":"www.belairroadsupply.com","salesRep":"Tony DiBuo","phoneNum":"302-542-4649","email":"brstony@yahoo.com","coords":{"lat":38.5208509,"lng":-75.2384031}},{"name":"Synatek Solutions","locality":" NY","state":" CT\"","zipcode":"Souderton","streetNumber":"PA","route":"18964","aptSuite":"737","website":"Hagey Center Dr.","salesRep":"www.synateksolutions.com","phoneNum":"Mid-Atlantic","email":"Bruce Landis","coords":{"lat":40.2972847,"lng":-75.3353875}},{"name":"Target-Specialty Products","locality":"Reading","state":"PA","zipcode":"19605","streetNumber":"710","route":"Corporate Center Dr.","aptSuite":"","website":"www.target-specialty.com","salesRep":"Alfie Gardiner","phoneNum":"610-416-5828","email":"alfie.gardiner@target-specialty.com","coords":{"lat":40.4082807,"lng":-75.939448}},{"name":"Target-Specialty Products","locality":"West Deptford","state":"NJ","zipcode":"08066","streetNumber":"1707","route":"Imperial Way","aptSuite":"","website":"www.target-specialty.com","salesRep":"Alfie Gardiner","phoneNum":"610-416-5828","email":"alfie.gardiner@target-specialty.com","coords":{"lat":39.8310007,"lng":-75.2055144}},{"name":"Genesis Green Supply","locality":"Glen Rock","state":"PA","zipcode":"17327","streetNumber":"137","route":"Commerce Dr.","aptSuite":"","website":"www.genesisturfgrass.com","salesRep":"Todd Cowing","phoneNum":"717-759-8151","email":"todd@genesisgreensupply.com","coords":{"lat":39.814338,"lng":-76.684742}},{"name":"Anderson Outdoor","locality":"Paxton","state":"IL","zipcode":"60957","streetNumber":"100","route":"W. Hunt St.","aptSuite":"","website":"www.andersonssportsturf.com","salesRep":"Jeff Anderson","phoneNum":"217-249-3793","email":"anderson.jeffreyalan@gmail.com","coords":{"lat":40.4525906,"lng":-88.1015429}},{"name":"Anderson Dirt","locality":"Collinsville","state":"IL","zipcode":"62234","streetNumber":"1231","route":"Troy Rd.","aptSuite":"","website":"","salesRep":"Blake Anderson","phoneNum":"859-351-0762","email":"andersondirtandturf@gmail.com","coords":{"lat":38.7157119,"lng":-89.9213872}},{"name":"Automatic Supply","locality":"Fishers","state":"IN","zipcode":"46038","streetNumber":"116","route":"Shadowlawn Dr.","aptSuite":"","website":"www.asksutomatic.com","salesRep":"Paul Thoma","phoneNum":"317-650-7785","email":"pthoma@askautomatic.com ","coords":{"lat":39.9521945,"lng":-86.0442765}},{"name":"Automatic Supply","locality":"Fort Wayne","state":"IN","zipcode":"46808","streetNumber":"2204","route":"Research Dr.","aptSuite":"","website":"www.asksutomatic.com","salesRep":"Blake Sievers","phoneNum":"260-415-0910","email":"bsievers@askautomatic.com ","coords":{"lat":41.1279224,"lng":-85.1706359}},{"name":"Automatic Supply","locality":"Indianapolis","state":"IN","zipcode":"46268","streetNumber":"5232","route":"W. 79th St.","aptSuite":"","website":"www.asksutomatic.com","salesRep":"Kurt Cloe","phoneNum":"317-409-6101","email":"kclore@askautomatic.com ","coords":{"lat":39.8969578,"lng":-86.251322}},{"name":"Automatic Supply","locality":"Greenwood","state":"IN","zipcode":"46143","streetNumber":"647","route":"Sayre Ct. A","aptSuite":"","website":"www.asksutomatic.com","salesRep":"Matt Alexander","phoneNum":"317-697-5356","email":"malexander@askautomatic.com","coords":{"lat":39.62826,"lng":-86.085071}},{"name":"Automatic Supply","locality":"Newburgh","state":"IN","zipcode":"47630","streetNumber":"7322","route":"Peachwood Dr.","aptSuite":"","website":"www.asksutomatic.com","salesRep":"Karl Proctor","phoneNum":"812-217-1172","email":"karl.proctor@askautomatic.com","coords":{"lat":37.97568880000001,"lng":-87.3839426}},{"name":"Beacon Athletics","locality":"Middleton","state":"WI","zipcode":"53562","streetNumber":"8233","route":"Forsythia St.","aptSuite":"Suite #120","website":"beaconathletics.com","salesRep":"Paul Zwaska","phoneNum":"800-747-5985","email":"pzwaska@beaconathletics.com","coords":{"lat":43.1103915,"lng":-89.52547009999999}},{"name":"Pioneer Athletics","locality":"Cleveland","state":"OH","zipcode":"44135","streetNumber":"4529","route":"Industrial Parkway","aptSuite":"","website":"www.pioneerathletics.com","salesRep":"Jim Cook","phoneNum":"800-877-1500","email":"jcook@pioneerathletics.com","coords":{"lat":41.4288148,"lng":-81.78769779999999}},{"name":"Atlanta Athletic Supply","locality":"Marietta","state":"GA","zipcode":"30062","streetNumber":"2390","route":"Chestnut Springs Trail","aptSuite":"","website":"","salesRep":"Mickey McMurtry","phoneNum":"770-880-4501","email":"AtlAthleticfieldsupply@gmail.com","coords":{"lat":33.9899764,"lng":-84.48196159999999}},{"name":"Reinders","locality":"Appleton","state":"WI","zipcode":"54913","streetNumber":"800","route":"Randolph Dr.","aptSuite":"","website":"www.reinders.com","salesRep":"Mick Dennin","phoneNum":"920-788-0200","email":"MDENNIN@REINDERS.COM","coords":{"lat":44.2985129,"lng":-88.30629309999999}},{"name":"Reinders","locality":"Kenosha","state":"WI","zipcode":"53101","streetNumber":"8441","route":"197th Ave","aptSuite":"","website":"www.reinders.com","salesRep":"Dan Navin","phoneNum":"262-857-3306","email":"DNAVIN@REINDERS.COM","coords":{"lat":42.5847425,"lng":-87.82118539999999}},{"name":"Reinders","locality":"Madison","state":"WI","zipcode":"53714","streetNumber":"4217","route":"Nakoosa Trail","aptSuite":"","website":"www.reinders.com","salesRep":"Ben Olds","phoneNum":"608-244-0200","email":"BOLDS@REINDERS.COM","coords":{"lat":43.1096428,"lng":-89.3106327}},{"name":"Reinders","locality":"Stevens Point","state":"WI","zipcode":"54467","streetNumber":"3510","route":"Post Rd.","aptSuite":"","website":"www.reinders.com","salesRep":"Kris Pinkerton","phoneNum":"715-342-3600","email":"kpinkerton@reinders.com","coords":{"lat":44.4462014,"lng":-89.53977499999999}},{"name":"Reinders","locality":"Waukesha","state":"WI","zipcode":"53188","streetNumber":"2343","route":"Pewaukee Rd.","aptSuite":"","website":"www.reinders.com","salesRep":"Adam Urbanski","phoneNum":"262-524-0200","email":"aurbanski@reinders.com","coords":{"lat":43.0357068,"lng":-88.22426449999999}},{"name":"Reinders","locality":"Hudson","state":"WI","zipcode":"54016","streetNumber":"588","route":"Schommer Dr. B","aptSuite":"","website":"www.reinders.com","salesRep":"Ryan Grajkowski","phoneNum":"715-690-2343","email":"rgrajkowski@reinders.com","coords":{"lat":44.990911,"lng":-92.6847165}},{"name":"Reinders","locality":"Buffalo Grove","state":"IL","zipcode":"60089","streetNumber":"111","route":"Lexington Dr.","aptSuite":"","website":"www.reinders.com","salesRep":"Kris Willing","phoneNum":"847-573-0300","email":"KWILLING@REINDERS.COM","coords":{"lat":42.155164,"lng":-87.9422881}},{"name":"Reinders","locality":"Minneapolis","state":"MN","zipcode":"55447","streetNumber":"2722","route":"Fernbook Ln N","aptSuite":"","website":"www.reinders.com","salesRep":"Chad Nowak","phoneNum":"763-503-0200","email":"cnovak@reinders.com","coords":{"lat":45.0093,"lng":-93.46091609999999}},{"name":"Reinders","locality":"Rochester","state":"MN","zipcode":"55901","streetNumber":"4165","route":"US-14","aptSuite":"Suite 100","website":"www.reinders.com","salesRep":"Tim Rainey","phoneNum":"507-292-0677","email":"trainey@reinders.com","coords":{"lat":44.0398262,"lng":-92.5255186}},{"name":"Reinders","locality":"Kansas City","state":"KS","zipcode":"66062","streetNumber":"19942","route":"W. 162nd St. D","aptSuite":"","website":"www.reinders.com","salesRep":"Curt Mays","phoneNum":"913-397-0080","email":"","coords":{"lat":38.8344256,"lng":-94.8191377}},{"name":"Target Specialty Products","locality":"Wixom","state":"MI","zipcode":"48377","streetNumber":"29380","route":"Beck Rd.","aptSuite":"","website":"www.target-specialty.com","salesRep":"Brett Roberts","phoneNum":"947-465-9650","email":"brett.roberts@target-specialty.com","coords":{"lat":42.5082789,"lng":-83.51559979999999}},{"name":"Target Specialty Products","locality":"Indianola","state":"IA","zipcode":"50125","streetNumber":"2616","route":" W 2nd Ave","aptSuite":"","website":"www.agrilandfs.com","salesRep":"Curtis Myers","phoneNum":"515-961-8408","email":"cmyers@agrilandfs.com","coords":{"lat":41.3579646,"lng":-93.5957236}},{"name":"Agriland FS","locality":"Underwood","state":"NE","zipcode":"51576","streetNumber":"701","route":"Railroad Hwy St.","aptSuite":"","website":"www.agrilandfs.com","salesRep":"Steve Watson","phoneNum":"402-707-2863","email":"swatson@agrilandfs.com","coords":{"lat":41.3801188,"lng":-95.6832493}},{"name":"Big Country Seeds","locality":"Tiffin","state":"IA","zipcode":"52340","streetNumber":"1050","route":"Greenfield Dr.","aptSuite":"","website":"www.bigcountryseeds.com","salesRep":"Brian Heinricy","phoneNum":"319-929-8025","email":"brian@bigcountyrseeds.com","coords":{"lat":41.690187,"lng":-91.6695189}},{"name":"D&K Products","locality":"Bettendorf","state":"IA","zipcode":"52722","streetNumber":"1210","route":"44th St.","aptSuite":"","website":"www.dkturf.com","salesRep":"Matt Nielsen","phoneNum":"563-823-1842","email":"mattn@dkturf.com","coords":{"lat":41.533619,"lng":-90.475561}},{"name":"D&K Products","locality":"Des Moines","state":"IA","zipcode":"50313","streetNumber":"1672","route":"NE 54th Ave","aptSuite":"","website":"www.dkturf.com","salesRep":"Ross Huff","phoneNum":"800-798-9352","email":"rossh@dkturf.com","coords":{"lat":41.65956970000001,"lng":-93.59341119999999}},{"name":"D&K Products","locality":"LaVista","state":"NE","zipcode":"68128","streetNumber":"11937","route":"Portal Rd.","aptSuite":"Suite 113","website":"www.dkturf.com","salesRep":"Tony Vacarro","phoneNum":"402-515-8302","email":"tonyv@dkturf.com","coords":{"lat":41.1728823,"lng":-96.09977900000001}},{"name":"Diamond Designs","locality":"Escondido","state":"CA","zipcode":"92128","streetNumber":"13421","route":"Highland Valley Rd.","aptSuite":"","website":"","salesRep":"Rick Mitchell","phoneNum":"858-583-1815","email":"AART@SAN.RR.COM","coords":{"lat":33.0516448,"lng":-117.0471027}},{"name":"Gerten's","locality":"Egan","state":"MN","zipcode":"55076","streetNumber":"5500","route":"Blaine Ave E","aptSuite":"","website":"www.gertens.com","salesRep":"Matt Krey","phoneNum":"651-319-3604","email":"mkrey@gertens.com","coords":{"lat":44.8678642,"lng":-93.05334429999999}},{"name":"Reinders","locality":"Minneapolis","state":"MN","zipcode":"55447","streetNumber":"2722","route":"Fernbrook Ln. N","aptSuite":"","website":"www.reinders.com","salesRep":"Chad Nowak","phoneNum":"763-503-0200","email":"cnovak@reinders.com","coords":{"lat":45.0093,"lng":-93.46091609999999}},{"name":"Reinders","locality":"Rochester","state":"MN","zipcode":"55901","streetNumber":"4165","route":"US-14","aptSuite":"Suite 100","website":"www.reinders.com","salesRep":"Tim Rainey","phoneNum":"507-292-0677","email":"trainey@reinders.com","coords":{"lat":44.0398262,"lng":-92.5255186}},{"name":"HLS Outdoor","locality":"Brooklyn","state":"MN","zipcode":"55428","streetNumber":"9300","route":"75th Ave N ","aptSuite":"","website":"www.hlsoutdoor","salesRep":"Nick Balistrieri","phoneNum":"651-279-5874","email":"nick.balistrieri@hlsoutdoor","coords":{"lat":45.0910007,"lng":-93.40014090000001}},{"name":"HLS Outdoor","locality":"Egan","state":"MN","zipcode":"55122","streetNumber":"2015","route":"Silver Bell Rd.","aptSuite":"Suite 110","website":"www.hlsoutdoor","salesRep":"Nick Balistrieri","phoneNum":"651-279-5874","email":"nick.balistrieri@hlsoutdoor","coords":{"lat":44.8221137,"lng":-93.20888409999999}},{"name":"Site One #25","locality":"Maryland Hts.","state":"MO","zipcode":"63146","streetNumber":"2135","route":"Schuetz Rd.","aptSuite":"","website":"www.siteone.com","salesRep":"Nick LaPlante","phoneNum":"314-991-3535","email":"","coords":{"lat":38.6983441,"lng":-90.4300033}},{"name":"Athletic Depot USA","locality":"Lulu","state":"GA","zipcode":"30554","streetNumber":"101","route":"Pearl Industrial Ave e","aptSuite":"","website":"www.athleticdepotusa.com","salesRep":"Jason Tindell","phoneNum":"877-499-7015","email":"jason@athleticdepotuse.com","coords":{"lat":34.0847457,"lng":-83.7420623}},{"name":"Ewing Irrigation & Landscape Branch #108","locality":"Baton Rouge","state":"LA","zipcode":"70809","streetNumber":"11638","route":"Cloverland Ave","aptSuite":"","website":"www.ewingirrigation.com","salesRep":"Jesse Kirvin","phoneNum":"225-753-7530","email":"branch108@ewingirrigation.com","coords":{"lat":30.3906305,"lng":-91.051693}},{"name":"Ewing Irrigation & Landscape Branch #109","locality":"Ridgeland","state":"MS","zipcode":"39157","streetNumber":"112","route":"E Marketridge Rd.","aptSuite":"","website":"www.ewingirrigation.com","salesRep":"Jason Rogers","phoneNum":"601-991-3185","email":"branch109@ewingirrigation.com","coords":{"lat":32.4081616,"lng":-90.1717762}},{"name":"Ewing Irrigation & Landscape Branch #109","locality":"Shreveport","state":"LA","zipcode":"71106","streetNumber":"234","route":"Lynbrook Blvd","aptSuite":"","website":"www.ewingirrigation.com","salesRep":"Brett Clifton","phoneNum":"318-671-5161","email":"branch165@ewingirrigation.com","coords":{"lat":32.4227547,"lng":-93.7599362}},{"name":"Ewing Irrigation & Landscape Branch #115","locality":"Alpharetta","state":"GA","zipcode":"30004","streetNumber":"4080","route":"Nine McFarland Dr.","aptSuite":"","website":"www.ewingirrigation.com","salesRep":"Jeremy Bohonko","phoneNum":"980-254-5100","email":"jbohonko@ewingirrigation.com","coords":{"lat":34.1353716,"lng":-84.2547956}},{"name":"Ewing Irrigation & Landscape Branch #135","locality":"Montgomery","state":"AL","zipcode":"36117","streetNumber":"5890","route":"Monticello Dr.","aptSuite":"","website":"www.ewingirrigation.com","salesRep":"Heather Corwin","phoneNum":"334-396-8202","email":"branch132@ewingirrigation.com","coords":{"lat":32.3647953,"lng":-86.2096157}},{"name":"Ewing Irrigation & Landscape Branch #148","locality":"Birmingham","state":"AL","zipcode":"35235","streetNumber":"5480","route":"Vann Pl.","aptSuite":"","website":"www.ewingirrigation.com","salesRep":"Jeremy Bohonko","phoneNum":"980-254-5100","email":"jbohonko@ewingirrigation.com","coords":{"lat":33.6082483,"lng":-86.6345772}},{"name":"Ewing Irrigation & Landscape Branch #150","locality":"Nashville","state":"TN","zipcode":"37210","streetNumber":"118","route":"Park S Ct.","aptSuite":"","website":"www.ewingirrigation.com","salesRep":"Jonathan Ayers","phoneNum":"615-244-8870","email":"branch150@ewingirrigation.com","coords":{"lat":36.1270429,"lng":-86.73951579999999}},{"name":"Ewing Irrigation & Landscape Branch #183","locality":"Columbia","state":"SC","zipcode":"29203","streetNumber":"101","route":"Sunbelt Blvd","aptSuite":"","website":"www.ewingirrigation.com","salesRep":"Jeremy Bohonko","phoneNum":"980-254-5100","email":"jbohonko@ewingirrigation.com","coords":{"lat":34.0680339,"lng":-81.0426233}},{"name":"Ewing Irrigation & Landscape Branch #189","locality":"Sanford","state":"FL","zipcode":"32771","streetNumber":"300","route":"Hickman Dr","aptSuite":"","website":"www.ewingirrigation.com","salesRep":"Kevin Scott","phoneNum":"407-462-8095","email":"kscott@ewingirrigation.com","coords":{"lat":28.8193135,"lng":-81.330229}},{"name":"Ewing Irrigation & Landscape Branch #190","locality":"Kissimmee","state":"FL","zipcode":"34744","streetNumber":"1045","route":"Garden St","aptSuite":"","website":"www.ewingirrigation.com","salesRep":"Kevin Scott","phoneNum":"407-462-8095","email":"kscott@ewingirrigation.com","coords":{"lat":28.3359455,"lng":-81.394497}},{"name":"Ewing Irrigation & Landscape Branch #196","locality":"Charlotte","state":"NC","zipcode":"28269","streetNumber":"6829","route":"Statesville Rd","aptSuite":"","website":"www.ewingirrigation.com","salesRep":"Jeremy Bohonko","phoneNum":"980-254-5100","email":"jbohonko@ewingirrigation.com","coords":{"lat":35.3145085,"lng":-80.84084949999999}},{"name":"Ewing Irrigation & Landscape Branch #197","locality":"Indian Trail","state":"NC","zipcode":"28079","streetNumber":"211","route":"Post Office Dr","aptSuite":"","website":"www.ewingirrigation.com","salesRep":"Jeremy Bohonko","phoneNum":"980-254-5100","email":"jbohonko@ewingirrigation.com","coords":{"lat":35.0796195,"lng":-80.660133}},{"name":"Ewing Irrigation & Landscape Branch #197","locality":"Charleston","state":"SC","zipcode":"29418","streetNumber":"7281","route":"Pepperdam Dr","aptSuite":"","website":"www.ewingirrigation.com","salesRep":"Jeremy Bohonko","phoneNum":"980-254-5100","email":"jbohonko@ewingirrigation.com","coords":{"lat":32.9246477,"lng":-80.06510469999999}},{"name":"Ewing Irrigation & Landscape Branch #198","locality":"Orlando","state":"FL","zipcode":"32805","streetNumber":"3333","route":"Old Winter Garden Rd","aptSuite":"","website":"www.ewingirrigation.com","salesRep":"Kevin Scott","phoneNum":"407-462-8095","email":"kscott@ewingirrigation.com","coords":{"lat":28.5476135,"lng":-81.41875519999999}},{"name":"Ewing Irrigation & Landscape Branch #199","locality":"Greer","state":"SC","zipcode":"29650","streetNumber":"20","route":"Concourse Way","aptSuite":"","website":"www.ewingirrigation.com","salesRep":"Jeremy Bohonko","phoneNum":"980-254-5100","email":"jbohonko@ewingirrigation.com","coords":{"lat":34.8763613,"lng":-82.2283197}},{"name":"Ewing Irrigation & Landscape Branch #208","locality":"Castle Hayne","state":"NC","zipcode":"28429","streetNumber":"4805","route":"Las Tortugas Dr","aptSuite":"","website":"www.ewingirrigation.com","salesRep":"Jeremy Bohonko","phoneNum":"980-254-5100","email":"jbohonko@ewingirrigation.com","coords":{"lat":34.3480426,"lng":-77.8795573}},{"name":"Ewing Irrigation & Landscape Branch #69","locality":"Apex","state":"NC","zipcode":"27523","streetNumber":"1700","route":"N Salem St","aptSuite":"Suite A","website":"www.ewingirrigation.com","salesRep":"Jeremy Bohonko","phoneNum":"980-254-5100","email":"jbohonko@ewingirrigation.com","coords":{"lat":35.7497451,"lng":-78.8470233}},{"name":"Ewing Irrigation & Landscape Branch #70","locality":"Garner","state":"NC","zipcode":"27529","streetNumber":"3609","route":"Jones Sausage Rd","aptSuite":"","website":"www.ewingirrigation.com","salesRep":"Jeremy Bohonko","phoneNum":"980-254-5100","email":"jbohonko@ewingirrigation.com","coords":{"lat":35.7304696,"lng":-78.5761545}},{"name":"Ewing Irrigation & Landscape Branch #91","locality":"Clearwater","state":"FL","zipcode":"33765","streetNumber":"2040","route":"Range Rd","aptSuite":"","website":"www.ewingirrigation.com","salesRep":"Matt Phillippi","phoneNum":"727-441-9530","email":"mphillippi@ewing1.com.","coords":{"lat":27.979378,"lng":-82.753298}},{"name":"Ewing Irrigation & Landscape Branch #92","locality":"Sarasota","state":"FL","zipcode":"34238","streetNumber":"6235","route":"McIntosh Rd","aptSuite":"","website":"www.ewingirrigation.com","salesRep":"Kevin Scott","phoneNum":"407-462-8095","email":"kscott@ewingirrigation.com","coords":{"lat":27.263439,"lng":-82.48002}},{"name":"Green-Resource","locality":"Charlotte","state":"NC","zipcode":"28273","streetNumber":"10404","route":"Granite St","aptSuite":"","website":"www.green-resource.com","salesRep":"Robert Herring ","phoneNum":"336-215-5368","email":"rherring@green-resource.com","coords":{"lat":35.1270429,"lng":-80.9247184}},{"name":"Green-Resource","locality":"Colfax","state":"NC","zipcode":"27235","streetNumber":"5204","route":"Highgreen Ct","aptSuite":"","website":"www.green-resource.com","salesRep":"Robert Herring ","phoneNum":"336-215-5368","email":"rherring@green-resource.com","coords":{"lat":36.0791631,"lng":-79.98162409999999}},{"name":"Green-Resource","locality":"Garner","state":"NC","zipcode":"27529","streetNumber":"1218","route":"Management Way","aptSuite":"","website":"www.green-resource.com","salesRep":"Robert Herring ","phoneNum":"336-215-5368","email":"rherring@green-resource.com","coords":{"lat":35.6963267,"lng":-78.59337099999999}},{"name":"Pro Grounds Products","locality":"Miami","state":"FL","zipcode":"33176","streetNumber":"8834","route":"SW 131st St","aptSuite":"","website":"www.progroundsproducts.com","salesRep":"Todd Legassy","phoneNum":"305-235-5101","email":"pgp@progroundsproducts.com","coords":{"lat":25.6481525,"lng":-80.3376949}},{"name":"Southern Seeds","locality":"Raleigh","state":"NC","zipcode":"27557","streetNumber":"10680","route":"E Finch AV","aptSuite":"","website":"www.southernseeds.com","salesRep":"Chad Strickland","phoneNum":"252-235-3111","email":"chad@southernseedsinc.com","coords":{"lat":35.7795897,"lng":-78.6381787}},{"name":"Turfnology","locality":"Atlanta","state":"GA","zipcode":"30677","streetNumber":"67","route":"Depot St","aptSuite":"","website":"www.turfnology.com","salesRep":"Frank Lopes","phoneNum":"706-206-6270","email":"frankl@turfnology.com","coords":{"lat":33.7489954,"lng":-84.3879824}},{"name":"Ewing Irrigation & Landscape Branch #101","locality":"Friendswood","state":"TX","zipcode":"77546","streetNumber":"4319","route":"FM 2351 Friendswood","aptSuite":"","website":"www.ewingirrigation.com","salesRep":"Jim Barbuto","phoneNum":"602-284-8274","email":"jbarbuto@ewingirrigation.com","coords":{"lat":29.5508846,"lng":-95.1823546}},{"name":"Ewing Irrigation & Landscape Branch #128","locality":"Katy","state":"TX","zipcode":"77450","streetNumber":"22403","route":"Katy Frwy","aptSuite":"","website":"www.ewingirrigation.com","salesRep":"Greg Stafford","phoneNum":"281-392-8111","email":"branch128@ewingirrigation.com","coords":{"lat":29.7843575,"lng":-95.75977209999999}},{"name":"Ewing Irrigation & Landscape Branch #146","locality":"Corpus Christi","state":"TX","zipcode":"78411","streetNumber":"4141","route":"Brett St","aptSuite":"","website":"www.ewingirrigation.com","salesRep":"Lee Wehring","phoneNum":"361-814-9530","email":"branch146@ewingirrigation.com","coords":{"lat":27.7191819,"lng":-97.3965302}},{"name":"Ewing Irrigation & Landscape Branch #161","locality":"San Marcos","state":"TX","zipcode":"78666","streetNumber":"118","route":"Hays Street","aptSuite":"Suite 101","website":"www.ewingirrigation.com","salesRep":"Jim Barbuto","phoneNum":"602-284-8274","email":"jbarbuto@ewingirrigation.com","coords":{"lat":29.8651484,"lng":-97.939729}},{"name":"Ewing Irrigation & Landscape Branch #162","locality":"Cedar Park","state":"TX","zipcode":"78613","streetNumber":"1400","route":"Cottonwood Creek Trl","aptSuite":"","website":"www.ewingirrigation.com","salesRep":"Ronnie Kammberger","phoneNum":"512-260-9990","email":"branch162@ewingirrigation.com","coords":{"lat":30.5342332,"lng":-97.8075223}},{"name":"Ewing Irrigation & Landscape Branch #173","locality":"Brownsville","state":"TX","zipcode":"78526","streetNumber":"5180","route":"N Expressway Brownsville","aptSuite":"","website":"www.ewingirrigation.com","salesRep":"Jim Barbuto","phoneNum":"602-284-8274","email":"jbarbuto@ewingirrigation.com","coords":{"lat":25.9819445,"lng":-97.51984279999999}},{"name":"Ewing Irrigation & Landscape Branch #74","locality":"Pheonix","state":"AZ","zipcode":"85033","streetNumber":"7920","route":"W Thomas Rd","aptSuite":"","website":"www.ewingirrigation.com","salesRep":"Jim Barbuto","phoneNum":"602-284-8274","email":"dpierski@ewingirrigation.com","coords":{"lat":33.480341,"lng":-112.228482}},{"name":"Ewing Irrigation & Landscape Branch #104","locality":"Dallas","state":"TX","zipcode":"75220","streetNumber":"10525","route":"Wire Way","aptSuite":"","website":"www.ewingirrigation.com","salesRep":"Jim Barbuto","phoneNum":"602-284-8274","email":"jbarbuto@ewingirrigation.com","coords":{"lat":32.8676818,"lng":-96.9053725}},{"name":"Ewing Irrigation & Landscape Branch #55","locality":"San Antonio","state":"TX","zipcode":"78249","streetNumber":"5826","route":"Hawk Springs ","aptSuite":"Bldg 1","website":"www.ewingirrigation.com","salesRep":"Jim Barbuto","phoneNum":"602-284-8274","email":"jbarbuto@ewingirrigation.com","coords":{"lat":29.5608938,"lng":-98.5998778}},{"name":"Ewing Irrigation & Landscape Branch #60","locality":"El Paso","state":"TX","zipcode":"79905","streetNumber":"3630","route":"Duranzo Ave","aptSuite":"","website":"www.ewingirrigation.com","salesRep":"Jim Barbuto","phoneNum":"602-284-8274","email":"jbarbuto@ewingirrigation.com","coords":{"lat":31.776323,"lng":-106.4498535}},{"name":"Ewing Irrigation & Landscape Branch #64","locality":"Edmond","state":"OK","zipcode":"73013","streetNumber":"13831","route":"N Lincoln Blvd","aptSuite":"","website":"www.ewingirrigation.com","salesRep":"Jim Barbuto","phoneNum":"602-284-8274","email":"jbarbuto@ewingirrigation.com","coords":{"lat":35.6112967,"lng":-97.50539300000001}},{"name":"Ewing Irrigation & Landscape Branch #84","locality":"Fort Worth","state":"TX","zipcode":"76133","streetNumber":"7445","route":"Hulen St","aptSuite":"","website":"www.ewingirrigation.com","salesRep":"Casey Strachan","phoneNum":"817-370-460","email":"branch84@ewing irrigation.com","coords":{"lat":32.6351255,"lng":-97.3910817}},{"name":"Ewing Irrigation & Landscape Branch #90","locality":"McAllen","state":"TX","zipcode":"78501","streetNumber":"1312","route":"E Upas Ave","aptSuite":"","website":"www.ewingirrigation.com","salesRep":"Jim Barbuto","phoneNum":"602-284-8274","email":"jbarbuto@ewingirrigation.com","coords":{"lat":26.2189617,"lng":-98.2022999}},{"name":"Gails Flags","locality":"Fort Worth","state":"TX","zipcode":"76117","streetNumber":"2821","route":"Carson St","aptSuite":"","website":"www.gailsflags.com","salesRep":"Dan Raulins","phoneNum":"817-831-4505","email":"dan@gailsflags.com","coords":{"lat":32.8031907,"lng":-97.2563093}},{"name":"Simplot Partners","locality":"Tempe","state":"AZ","zipcode":"85281","streetNumber":"2301","route":"2405 W University Dr","aptSuite":"","website":"www.simplot.com","salesRep":"Brad Bird","phoneNum":"480-519-6012","email":"brad.bird@simplot.com","coords":{"lat":33.4212392,"lng":-111.9754443}},{"name":"Simplot Partners","locality":"Fullerton","state":"CA","zipcode":"92831","streetNumber":"2300","route":"E Valencia Dr","aptSuite":"","website":"www.simplot.com","salesRep":"Paul Wizikowski","phoneNum":"714-686-7493","email":"paul.wizikowski@simplot.com","coords":{"lat":33.8664203,"lng":-117.8924477}},{"name":"Simplot Partners","locality":"San Siego","state":"CA","zipcode":"92121","streetNumber":"6160","route":"Marindustry Dr a","aptSuite":"","website":"www.simplot.com","salesRep":"Pat Reilly","phoneNum":"541-279-1009","email":"patrick.reilly@simplot.com","coords":{"lat":32.8804777,"lng":-117.1811588}},{"name":"Simplot Partners","locality":"Las Vegas","state":"NV","zipcode":"89118","streetNumber":"3555","route":"W Reno Ave","aptSuite":"Suite K","website":"www.simplot.com","salesRep":"Dominic Jiron","phoneNum":"702-210-6815","email":"dominic.jiron@simplot.com","coords":{"lat":36.09641209999999,"lng":-115.1871559}},{"name":"Simplot Partners","locality":"Oklahoma City","state":"OK","zipcode":"73127","streetNumber":"5201","route":"Reno Ave Ste E","aptSuite":"","website":"www.simplot.com","salesRep":"Ken Carlton","phoneNum":"405-201-3180","email":"ken.carlton@simplot.com","coords":{"lat":35.4653297,"lng":-97.61038529999999}},{"name":"Unlimited Sporrts Solutions","locality":"Waverly","state":"NE","zipcode":"68462","streetNumber":"14650","route":"Woodstock Blvd","aptSuite":"","website":"www.unlimitedsportssolutions.com","salesRep":"Mike Estlinbaum","phoneNum":"979-240-1185","email":"mike@unlimitedsporrtssolutions.com","coords":{"lat":40.9209095,"lng":-96.5223535}},{"name":"Unlimited Sporrts Solutions","locality":"Bay City ","state":"TX","zipcode":"77414","streetNumber":"2314","route":"10th St","aptSuite":"","website":"www.unlimitedsportssolutions.com","salesRep":"Mike Estlinbaum","phoneNum":"979-240-1185","email":"","coords":{"lat":28.9861266,"lng":-95.9626888}},{"name":"CPS Distributors Inc","locality":"Glenwood Springs","state":"CO","zipcode":"81601","streetNumber":"5311","route":"Co Rd","aptSuite":"154 Unit A","website":"https://cpsdistributors.com/","salesRep":"Jim Mueller","phoneNum":"JM: 720-318-5749 or LOC: 970-945-9362","email":"muellerj@cpsdistributors.com","coords":{"lat":39.5505376,"lng":-107.3247762}},{"name":"CPS Distributors Inc","locality":"Colorado Springs","state":"CO","zipcode":"80915","streetNumber":"6020","route":"Galley Rd","aptSuite":"","website":"https://cpsdistributors.com/","salesRep":"Jim Mueller","phoneNum":"JM: 720-318-5749 or LOC: 719-574-2400","email":"muellerj@cpsdistributors.com","coords":{"lat":38.8465616,"lng":-104.7142541}},{"name":"CPS Distributors Inc","locality":"Centennial","state":"CO","zipcode":"80112","streetNumber":"7250","route":"S Frasier St","aptSuite":"","website":"https://cpsdistributors.com/","salesRep":"Jim Mueller","phoneNum":"JM: 720-318-5749 or LOC: 720-870-9933 ","email":"muellerj@cpsdistributors.com","coords":{"lat":39.5856904,"lng":-104.8123573}},{"name":"CPS Distributors Inc","locality":"Englewood","state":"CO","zipcode":"80110","streetNumber":"4501","route":"S Navajo St","aptSuite":"","website":"https://cpsdistributors.com/","salesRep":"Jim Mueller","phoneNum":"JM: 720-318-5749 or LOC: 303-730-7310","email":"muellerj@cpsdistributors.com","coords":{"lat":39.6347214,"lng":-105.004904}},{"name":"CPS Distributors Inc","locality":"Aurora","state":"CO","zipcode":"80011","streetNumber":"15556","route":"E 17th Ave","aptSuite":"","website":"https://cpsdistributors.com/","salesRep":"Jim Mueller","phoneNum":"JM: 720-318-5749 or LOC: 303-261-1360","email":"muellerj@cpsdistributors.com","coords":{"lat":39.7433664,"lng":-104.8074789}},{"name":"CPS Distributors Inc","locality":"Lakewood","state":"CO","zipcode":"80215","streetNumber":"11494","route":"W 8th Ave","aptSuite":"","website":"https://cpsdistributors.com/","salesRep":"Jim Mueller","phoneNum":"JM: 720-318-5749 or LOC: 303-237-5042","email":"muellerj@cpsdistributors.com","coords":{"lat":39.7287423,"lng":-105.1264437}},{"name":"CPS Distributors Inc","locality":"Arvada","state":"CO","zipcode":"80002","streetNumber":"5601","route":"Gray St","aptSuite":"Unit B","website":"https://cpsdistributors.com/","salesRep":"Jim Mueller","phoneNum":"JM: 720-318-5749 or LOC: 720-456-6703","email":"muellerj@cpsdistributors.com","coords":{"lat":39.7986766,"lng":-105.0625911}},{"name":"CPS Distributors Inc","locality":"Westminster","state":"CO","zipcode":"80234","streetNumber":"1105","route":"W 122nd Ave","aptSuite":"","website":"https://cpsdistributors.com/","salesRep":"Jim Mueller","phoneNum":"JM: 720-318-5749 or LOC: 303-394-6040","email":"muellerj@cpsdistributors.com","coords":{"lat":39.9184192,"lng":-105.0004068}},{"name":"CPS Distributors Inc","locality":"Boulder","state":"CO","zipcode":"80301","streetNumber":"5700","route":"Valmont Rd","aptSuite":"","website":"https://cpsdistributors.com/","salesRep":"Jim Mueller","phoneNum":"JM: 720-318-5749 or LOC: 303-442-7975","email":"muellerj@cpsdistributors.com","coords":{"lat":40.0286094,"lng":-105.2213617}},{"name":"CPS Distributors Inc","locality":"Longmont","state":"CO","zipcode":"80501","streetNumber":"1841","route":"Boston Ave","aptSuite":"","website":"https://cpsdistributors.com/","salesRep":"Jim Mueller","phoneNum":"JM: 720-318-5749 or LOC: 303-651-9512","email":"muellerj@cpsdistributors.com","coords":{"lat":40.1584194,"lng":-105.1242966}},{"name":"CPS Distributors Inc","locality":"Fort Collins","state":"CO","zipcode":"80524","streetNumber":"207","route":"N Timberline Rd","aptSuite":"","website":"https://cpsdistributors.com/","salesRep":"Jim Mueller","phoneNum":"720-318-5749","email":"muellerj@cpsdistributors.com","coords":{"lat":40.5891731,"lng":-105.0300667}},{"name":"CPS Distributors Inc","locality":"South Denver","state":"CO","zipcode":"80231","streetNumber":"7660 ","route":"E Jewell Ave","aptSuite":"","website":"https://cpsdistributors.com/","salesRep":"Jim Mueller","phoneNum":"JM: 720-318-5749 or LOC: 720-640-2550","email":"muellerj@cpsdistributors.com","coords":{"lat":39.6817318,"lng":-104.8996481}},{"name":"CPS Distributors Inc","locality":"North Colorado Springs","state":"CO","zipcode":"80918","streetNumber":"4710","route":"Northpark Dr","aptSuite":"Suite 110","website":"https://cpsdistributors.com/","salesRep":"Jim Mueller","phoneNum":"JM: 720-318-5749 or LOC: 719-283-7555","email":"muellerj@cpsdistributors.com","coords":{"lat":38.9001592,"lng":-104.82786}},{"name":"CPS Distributors Inc","locality":"Cheyenne","state":"WY","zipcode":"82001","streetNumber":"1001","route":"Dunn Ave","aptSuite":"","website":"https://cpsdistributors.com/","salesRep":"Jim Mueller","phoneNum":"JM: 720-318-5749 or LOC: 307-637-6040","email":"muellerj@cpsdistributors.com","coords":{"lat":41.134084,"lng":-104.7950782}},{"name":"CPS Distributors Inc","locality":"Denver","state":"CO","zipcode":"80216","streetNumber":"6260","route":"Washington St","aptSuite":"","website":"https://cpsdistributors.com/","salesRep":"Jim Mueller","phoneNum":"JM: 720-318-5749 or LOC: 307-637-6040","email":"muellerj@cpsdistributors.com","coords":{"lat":39.810613,"lng":-104.9763066}},{"name":"CPS Distributors Inc","locality":"Grand Junction","state":"CO","zipcode":"81501","streetNumber":"240","route":"North Ave","aptSuite":"","website":"https://cpsdistributors.com/","salesRep":"Jim Mueller","phoneNum":"JM: 720-318-5749 or LOC: 970-241-8480","email":"muellerj@cpsdistributors.com","coords":{"lat":39.0778179,"lng":-108.5684866}},{"name":"Ewing Irrigation & Landscape Bracnh #03","locality":"San Jose","state":"CA","zipcode":"95112","streetNumber":"1605","route":"Old Bayshore Hwy","aptSuite":"","website":"www.ewingirrigation.com","salesRep":"Jim Barbuto","phoneNum":"602-284-8274","email":"jbarbuto@ewingirrigation.com","coords":{"lat":37.3677882,"lng":-121.9052631}},{"name":"Ewing Irrigation & Landscape Bracnh #117","locality":"San Louis Obispo","state":"CA","zipcode":"93401","streetNumber":"1175","route":"Prospect St","aptSuite":"","website":"www.ewingirrigation.com","salesRep":"Jim Barbuto","phoneNum":"602-284-8274","email":"jbarbuto@ewingirrigation.com","coords":{"lat":35.2350764,"lng":-120.6296073}},{"name":"Ewing Irrigation & Landscape Branch # 125","locality":"Santa Clarita","state":"CA","zipcode":"91355","streetNumber":"27726","route":"Avenue Hopkins","aptSuite":"","website":"www.ewingirrigation.com","salesRep":"Jim Barbuto","phoneNum":"916-502-3287","email":"jbarbuto@ewingirrigation.com","coords":{"lat":34.4328001,"lng":-118.5737341}},{"name":"Ewing Irrigation & Landscape Branch #01","locality":"San Leandro","state":"CA","zipcode":"94577","streetNumber":"24577","route":"Polvorosa Ave","aptSuite":"","website":"www.ewingirrigation.com","salesRep":"Jim Barbuto","phoneNum":"916-502-3287","email":"jbarbuto@ewingirrigation.com","coords":{"lat":37.7099321,"lng":-122.1868767}},{"name":"Ewing Irrigation & Landscape Branch #02","locality":"Sacramento","state":"CA","zipcode":"95811","streetNumber":"345","route":"Richards Blvd","aptSuite":"","website":"www.ewingirrigation.com","salesRep":"Jim Barbuto","phoneNum":"916-502-3287","email":"jbarbuto@ewingirrigation.com","coords":{"lat":38.5976805,"lng":-121.4987859}},{"name":"Ewing Irrigation & Landscape Branch #100","locality":"Las Vegas","state":"NV","zipcode":"89103","streetNumber":"4705","route":"S Valley View","aptSuite":"","website":"www.ewingirrigation.com","salesRep":"Jim Barbuto","phoneNum":"602-245-8456","email":"jbarbuto@ewingirrigation.com","coords":{"lat":36.1042587,"lng":-115.1904907}},{"name":"Ewing Irrigation & Landscape Branch #11","locality":"Chatsworth","state":"CA","zipcode":"91311","streetNumber":"21101","route":"Superior St","aptSuite":"","website":"www.ewingirrigation.com","salesRep":"Edgar Lomeli","phoneNum":"818-882-9530","email":"branch11@ewingirrigation.com","coords":{"lat":34.24664300000001,"lng":-118.5931983}},{"name":"Ewing Irrigation & Landscape Branch #136","locality":"Tacoma","state":"WA","zipcode":"98409","streetNumber":"2901","route":"S Tacoma Way","aptSuite":"","website":"www.ewingirrigation.com","salesRep":"Jim Barbuto","phoneNum":"602-284-8274","email":"jbarbuto@ewingirrigation.com","coords":{"lat":47.2300056,"lng":-122.4738714}},{"name":"Ewing Irrigation & Landscape Branch #139","locality":"Kirkland","state":"WA","zipcode":"98033","streetNumber":"815","route":"8th St Kirkland","aptSuite":"","website":"www.ewingirrigation.com","salesRep":"Jim Barbuto","phoneNum":"602-284-8274","email":"jbarbuto@ewingirrigation.com","coords":{"lat":47.6819926,"lng":-122.1937018}},{"name":"Ewing Irrigation & Landscape Branch #14","locality":"Visalia","state":"CA","zipcode":"93291","streetNumber":"9443","route":"W Goshen","aptSuite":"","website":"www.ewingirrigation.com","salesRep":"Walt Cubas","phoneNum":"559-651-0282","email":"jbarbuto@ewingirrigation.com","coords":{"lat":36.3415852,"lng":-119.3965729}},{"name":"Ewing Irrigation & Landscape Branch #140","locality":"Tigard","state":"OR","zipcode":"97223","streetNumber":"10600","route":"SW Cascade Ave","aptSuite":"","website":"www.ewingirrigation.com","salesRep":"Jim Barbuto","phoneNum":"602-284-8274","email":"jbarbuto@ewingirrigation.com","coords":{"lat":45.44327879999999,"lng":-122.7806313}},{"name":"Ewing Irrigation & Landscape Branch #143","locality":"Salem","state":"OR","zipcode":"97301","streetNumber":"3475","route":"Pipe Band Pl","aptSuite":"","website":"www.ewingirrigation.com","salesRep":"Jim Barbuto","phoneNum":"602-284-8274","email":"jbarbuto@ewingirrigation.com","coords":{"lat":44.9428975,"lng":-123.0350963}},{"name":"Ewing Irrigation & Landscape Branch #158","locality":"Redding","state":"CA","zipcode":"96003","streetNumber":"3015","route":"Crossroads Dr","aptSuite":"","website":"www.ewingirrigation.com","salesRep":"Brian Dixon","phoneNum":"530-222-9530","email":"branch158@ewingirrigation.com","coords":{"lat":40.5636963,"lng":-122.2972717}},{"name":"Ewing Irrigation & Landscape Branch #16","locality":"Bakersfield","state":"CA","zipcode":"93308","streetNumber":"3201","route":"Sillect Ave","aptSuite":"","website":"www.ewingirrigation.com","salesRep":"Tristian Martina","phoneNum":"661-323-9530","email":"branch16@ewingirrigation.com","coords":{"lat":35.3892001,"lng":-119.0379998}},{"name":"Ewing Irrigation & Landscape Branch #176","locality":"Seattle","state":"WA","zipcode":"98108","streetNumber":"751","route":"S Michigan St","aptSuite":"","website":"www.ewingirrigation.com","salesRep":"Jim Barbuto","phoneNum":"602-284-8274","email":"jbarbuto@ewingirrigation.com","coords":{"lat":47.5464761,"lng":-122.3244227}},{"name":"Ewing Irrigation & Landscape Branch #181","locality":"Pasco","state":"WA","zipcode":"99301","streetNumber":"1625","route":"E James St","aptSuite":"","website":"www.ewingirrigation.com","salesRep":"Jim Barbuto","phoneNum":"602-284-8274","email":"jbarbuto@ewingirrigation.com","coords":{"lat":46.2490855,"lng":-119.0812591}},{"name":"Ewing Irrigation & Landscape Branch #21","locality":"El Cajon","state":"CA","zipcode":"92020","streetNumber":"1923","route":" John Towers","aptSuite":"","website":"www.ewingirrigation.com","salesRep":"Chris Gordan","phoneNum":"619-562-3300","email":"branch21@ewingirrigation.com","coords":{"lat":32.8233634,"lng":-116.9800453}},{"name":"Ewing Irrigation & Landscape Branch #28","locality":"Midvale","state":"UT","zipcode":"84047","streetNumber":"6849","route":"S 300 W Midvale","aptSuite":"","website":"www.ewingirrigation.com","salesRep":"Brad Mecham","phoneNum":"801-566-4446","email":"jbarbuto@ewingirrigation.com","coords":{"lat":40.6268739,"lng":-111.8991977}},{"name":"Ewing Irrigation & Landscape Branch #34","locality":"Orem","state":"UT","zipcode":"84057","streetNumber":"712","route":"N Blvd","aptSuite":"","website":"www.ewingirrigation.com","salesRep":"Dustin Quarnberg","phoneNum":"801-222-0777","email":"branch34@ewingirrigation.com","coords":{"lat":40.2968979,"lng":-111.6946475}},{"name":"Ewing Irrigation & Landscape Branch #40","locality":"Hayward","state":"CA","zipcode":"94544","streetNumber":"30928","route":"San Antonio","aptSuite":"","website":"www.ewingirrigation.com","salesRep":"Jim Barbuto","phoneNum":"916-502-3287","email":"jbarbuto@ewingirrigation.com","coords":{"lat":37.613752,"lng":-122.0477874}},{"name":"Ewing Irrigation & Landscape Branch #41","locality":"Sparks","state":"NV","zipcode":"89431","streetNumber":"1643","route":"Greg Ct","aptSuite":"","website":"www.ewingirrigation.com","salesRep":"Jim Barbuto","phoneNum":"916-502-3287","email":"jbarbuto@ewingirrigation.com","coords":{"lat":39.5224224,"lng":-119.7648004}},{"name":"Ewing Irrigation & Landscape Branch #43","locality":"Clovis","state":"CA","zipcode":"93611","streetNumber":"1599","route":"Menlo Ave","aptSuite":"","website":"www.ewingirrigation.com","salesRep":"Aaron Kelly","phoneNum":"559-298-4440","email":"branch16@ewingirrigation.com","coords":{"lat":36.8316151,"lng":-119.6867633}},{"name":"Ewing Irrigation & Landscape Branch #46","locality":"Corona","state":"CA","zipcode":"92879","streetNumber":"3940","route":"N McKinley St","aptSuite":"","website":"www.ewingirrigation.com","salesRep":"Jim Barbuto","phoneNum":"602-284-8274","email":"jbarbuto@ewingirrigation.com","coords":{"lat":33.8832806,"lng":-117.5162868}},{"name":"Ewing Irrigation & Landscape Branch #52","locality":"Poway","state":"CA","zipcode":"92064","streetNumber":"12270","route":"Oak Knoll Rd","aptSuite":"","website":"www.ewingirrigation.com","salesRep":"Jim Barbuto","phoneNum":"602-284-8274","email":"jbarbuto@ewingirrigation.com","coords":{"lat":32.9505745,"lng":-117.0652722}},{"name":"Ewing Irrigation & Landscape Branch #59","locality":"Lehi","state":"UT","zipcode":"84043","streetNumber":"305","route":"S 850 East ","aptSuite":"Unit 106B","website":"www.ewingirrigation.com","salesRep":"Jim Barbuto","phoneNum":"916-502-3287","email":"jbarbuto@ewingirrigation.com","coords":{"lat":40.384176,"lng":-111.8341285}},{"name":"Ewing Irrigation & Landscape Branch #79","locality":"Chico","state":"CA","zipcode":"95973","streetNumber":"163","route":"Commercial Ave","aptSuite":"","website":"www.ewingirrigation.com","salesRep":"Gary Wheeler","phoneNum":"530-894-5900","email":"branch79@ewingirrigation.com","coords":{"lat":39.7681225,"lng":-121.8708887}},{"name":"Ewing Irrigation & Landscape Branch #207","locality":"St. Petersburg","state":"FL","zipcode":"33714","streetNumber":"3199","route":"46th Ave N","aptSuite":"","website":"www.ewingirrigation.com","salesRep":"Roger Luna","phoneNum":"623-584-1380","email":"","coords":{"lat":27.8142479,"lng":-82.67616819999999}},{"name":"Ewing Irrigation & Landscape Branch #188","locality":"Surprise","state":"AZ","zipcode":"85378","streetNumber":"17194","route":"N Dysart Rd","aptSuite":"","website":"www.ewingirrigation.com","salesRep":"Glen Kress","phoneNum":"775-355-9530","email":"","coords":{"lat":33.640757,"lng":-112.3426715}},{"name":"Ewing Irrigation & Landscape Branch #400","locality":"Tucson","state":"AZ","zipcode":"85714","streetNumber":"4250","route":"S Station Master Dr","aptSuite":"","website":"www.ewingirrigation.com","salesRep":"Jesus Montano","phoneNum":"520-584-9530","email":"","coords":{"lat":32.1722683,"lng":-110.9103814}},{"name":"Ewing Irrigation & Landscape Branch #131","locality":"Tyler","state":"TX","zipcode":"75703","streetNumber":"2010","route":"Shiloh Rd","aptSuite":"","website":"www.ewingirrigation.com","salesRep":"Eric Lee","phoneNum":"903-509-1144","email":"","coords":{"lat":32.2958035,"lng":-95.2768023}},{"name":"Ewing Irrigation & Landscape Branch #97","locality":"Peoria","state":"AZ","zipcode":"85382","streetNumber":"19085","route":"N 83rd Ave","aptSuite":"Suite B","website":"www.ewingirrigation.com","salesRep":"John Hock","phoneNum":"623-979-1981","email":"","coords":{"lat":33.6571254,"lng":-112.2370046}},{"name":"Ewing Irrigation & Landscape Branch #57","locality":"North Richland Hills","state":"TX","zipcode":"76180","streetNumber":"5207","route":"Davis Blvd","aptSuite":"","website":"www.ewingirrigation.com","salesRep":"Scott Stewart","phoneNum":"817-814-9530","email":"","coords":{"lat":32.8422524,"lng":-97.2153192}},{"name":"Ewing Irrigation & Landscape Branch #168","locality":"Mesquite","state":"TX","zipcode":"75150","streetNumber":"1020","route":"Neville Ct","aptSuite":"","website":"www.ewingirrigation.com","salesRep":"Brad Powers","phoneNum":"972-329-9530","email":"","coords":{"lat":32.7952247,"lng":-96.61283979999999}},{"name":"Ewing Irrigation & Landscape Branch #47","locality":"Austin","state":"TX","zipcode":"78753","streetNumber":"8533","route":"IH-35","aptSuite":"","website":"www.ewingirrigation.com","salesRep":"Caleb Crane","phoneNum":"512-491-9530","email":"","coords":{"lat":30.2971535,"lng":-97.7183246}},{"name":"Ewing Irrigation & Landscape Branch #404","locality":"Dallas","state":"TX","zipcode":"75220","streetNumber":"10525","route":"Wire Way","aptSuite":"","website":"www.ewingirrigation.com","salesRep":"Mike Sheehan","phoneNum":"972-835-9808","email":"","coords":{"lat":32.8676818,"lng":-96.9053725}},{"name":"Ewing Irrigation & Landscape Supply #201","locality":"Ft. Myers","state":"FL","zipcode":"33912","streetNumber":"8091","route":"Supply Dr","aptSuite":"","website":"www.ewingirrigation.com","salesRep":"Ryan Freitag","phoneNum":"239-337-9530","email":"","coords":{"lat":26.4955362,"lng":-81.8204294}},{"name":"Ewing Irrigation & Landscape Branch #160","locality":"Jacksonville","state":"FL","zipcode":"32256","streetNumber":"11590","route":"Davis Creek Ct","aptSuite":"","website":"www.ewingirrigation.com","salesRep":"Gib McGibney","phoneNum":"904-370-1100","email":"","coords":{"lat":30.1605186,"lng":-81.5233432}},{"name":"Ewing Irrigation & Landscape Branch #77","locality":"Las Cruces","state":"NM","zipcode":"88005","streetNumber":"2341","route":"Westgate Ct","aptSuite":"","website":"www.ewingirrigation.com","salesRep":"Jesse Morales","phoneNum":"575-647-9166","email":"","coords":{"lat":32.2982472,"lng":-106.8083893}},{"name":"Ewing Irrigation & Landscape Branch #57","locality":"North Richland Hills","state":"TX","zipcode":"76180","streetNumber":"5207","route":"Davis Blvd","aptSuite":"","website":"www.ewingirrigation.com","salesRep":"Scott Stewart","phoneNum":"817-814-9530","email":"","coords":{"lat":32.8422524,"lng":-97.2153192}},{"name":"Netex Sports Netting","locality":"Delta","state":"BC","zipcode":"V4K 0B4","streetNumber":"7500","route":"Ottawa St","aptSuite":"#102","website":"www.netexnetting.com","salesRep":"Kassandra Wilson","phoneNum":"604-946-8679","email":"netexnettingsales@gmail.com","coords":{"lat":49.0812967,"lng":-123.0164151}},{"name":"Simplot Partners","locality":"Fullerton","state":"CA","zipcode":"92831","streetNumber":"2300","route":"E Valencia Dr","aptSuite":"","website":"www.simplot.com","salesRep":"Paul Wizikowski","phoneNum":"714-686-7493","email":"paul.wizikowski@simplot.com","coords":{"lat":0,"lng":0}},{"name":"Simplot Partners","locality":"San Siego","state":"CA","zipcode":"92121","streetNumber":"6160","route":"Marindustry Dr","aptSuite":"","website":"www.simplot.com","salesRep":"Pat Reilly","phoneNum":"541-279-1009","email":"patrick.reilly@simplot.com","coords":{"lat":32.8804777,"lng":-117.1811588}},{"name":"Simplot Partners","locality":"Portland","state":"OR","zipcode":"97220","streetNumber":"11600","route":"NE Marx St","aptSuite":"","website":"www.simplot.com","salesRep":"Sean Watts","phoneNum":"503-319-9225","email":"sean.watts@simplot.com","coords":{"lat":45.5593992,"lng":-122.5429123}},{"name":"Simplot Partners","locality":"Hubbard","state":"OR","zipcode":"97032","streetNumber":"2655","route":"Pacific Hwy","aptSuite":"","website":"www.simplot.com","salesRep":"Sean Watts","phoneNum":"503-319-9225","email":"sean.watts@simplot.com","coords":{"lat":45.1762787,"lng":-122.8101824}},{"name":"Simplot Partners","locality":"Tacoma","state":"WA","zipcode":"97220","streetNumber":"1805","route":"Smeed Pkwy","aptSuite":"#101","website":"www.simplot.com","salesRep":"Erik Boley","phoneNum":"971-219-9959","email":"erik.boley@simplot.com","coords":{"lat":47.2528768,"lng":-122.4442906}},{"name":"Simplot Partners","locality":"Denver","state":"CO","zipcode":"80216","streetNumber":"4195","route":"Oneida St h","aptSuite":"","website":"www.simplot.com","salesRep":"Denton Kurtz","phoneNum":"866-437-5727","email":"denton.kurtz@simplot.com","coords":{"lat":39.7739829,"lng":-104.9094148}},{"name":"Simplot Partners","locality":"Las Vegas","state":"NV","zipcode":"89118","streetNumber":"3555","route":"W Reno Ave","aptSuite":"Suite K","website":"www.simplot.com","salesRep":"Dominic Jiron","phoneNum":"702-210-6815","email":"dominic.jiron@simplot.com","coords":{"lat":36.09641209999999,"lng":-115.1871559}},{"name":"TMT Enterprises","locality":"San Jose","state":"CA","zipcode":"95131","streetNumber":"1996","route":"Old Oakland Rd","aptSuite":"","website":"www.tmtenterprises.net/products.php","salesRep":"Matt Moore","phoneNum":"408-432-9040","email":"matt@tmtenterprises.net","coords":{"lat":37.3920847,"lng":-121.9008396}},{"name":"Site One #523","locality":"Erlanger ","state":"KY","zipcode":"41018","streetNumber":"3635","route":"Ohara Rd","aptSuite":"","website":"www.siteone.com","salesRep":"Bradley Dennis","phoneNum":"859-282-9731","email":"BDennis@siteone.com","coords":{"lat":39.036884,"lng":-84.638661}},{"name":"Site One #553","locality":"Ft. Wayne","state":"IN","zipcode":"46818","streetNumber":"6250","route":"Cross Creek Blvd","aptSuite":"","website":"www.siteone.com","salesRep":"Brantley Farris","phoneNum":"260-451-0668","email":"BFarris@siteone.com","coords":{"lat":41.1361918,"lng":-85.16644699999999}},{"name":"Site One #114","locality":"Noblesville","state":"IN","zipcode":"46062","streetNumber":"20238","route":"Hague Rd","aptSuite":"","website":"www.siteone.com","salesRep":"Greg Piehl","phoneNum":"317-770-8950 ","email":"GPiehl@siteone.com","coords":{"lat":40.082199,"lng":-86.0323867}},{"name":"Site One #106","locality":"Orange","state":"CA","zipcode":"92868","streetNumber":"610","route":"North Batavia St.","aptSuite":"","website":"www.siteone.com","salesRep":"Michael Romero","phoneNum":"714-639-1850","email":"MRomero@siteone.com","coords":{"lat":33.7970419,"lng":-117.8627822}},{"name":"Site One #332","locality":"Phoenix","state":"AZ","zipcode":"85027","streetNumber":"22010","route":"N 21st Ave","aptSuite":"","website":"www.siteone.com","salesRep":"Sonny Lopes Jr","phoneNum":"623-587-5636 ","email":"PLopesJr@siteone.com","coords":{"lat":33.6858796,"lng":-112.1049473}},{"name":"Site One #5","locality":"Largo","state":"FL","zipcode":"33773","streetNumber":"13065","route":"Belcher Rd S","aptSuite":"","website":"www.siteone.com","salesRep":"April DeStefano","phoneNum":" 727-531-3180","email":"","coords":{"lat":27.8913354,"lng":-82.7450813}},{"name":"Site One #620","locality":"Lincoln","state":"NE","zipcode":"68522","streetNumber":"370","route":"SW 25th St","aptSuite":"Suite 3","website":"www.siteone.com","salesRep":"Jamey Montey","phoneNum":"402-247-6233","email":"","coords":{"lat":40.8101236,"lng":-96.7556305}},{"name":"Site One #608","locality":"Mahwah","state":"NJ","zipcode":"07430","streetNumber":"00100","route":"Weyerhauser Rd","aptSuite":"","website":"www.siteone.com","salesRep":"Shane Wiman","phoneNum":"201-529-1680","email":"","coords":{"lat":41.0836042,"lng":-74.14337280000001}},{"name":"Site One #793","locality":"Norman","state":"OK","zipcode":"73069","streetNumber":"5711","route":"Huettner Dr","aptSuite":"","website":"www.siteone.com","salesRep":"Shawn Slifer","phoneNum":"405-364-3250","email":"","coords":{"lat":35.2876375,"lng":-97.48522159999999}},{"name":"Site One #45","locality":"Olathe","state":"KS","zipcode":"66062","streetNumber":"15170","route":"S Hamilton St","aptSuite":"Suite A","website":"www.siteone.com","salesRep":"Neil Dunker","phoneNum":"913-780-3004","email":"","coords":{"lat":38.8528666,"lng":-94.81164799999999}},{"name":"Site One #431","locality":"Plain City","state":"OH","zipcode":"43064","streetNumber":"7801","route":"Corporate Blvd","aptSuite":"Unit A","website":"www.siteone.com","salesRep":"","phoneNum":"614-504-9000","email":"","coords":{"lat":40.12714709999999,"lng":-83.19345160000002}},{"name":"Site One #712","locality":"Pleasant Valley","state":"MO","zipcode":"64068","streetNumber":"6609","route":"Royal St","aptSuite":"Suite 114","website":"www.siteone.com","salesRep":"Rod Madison","phoneNum":"816-781-2802","email":"","coords":{"lat":39.2152973,"lng":-94.4810222}},{"name":"Site One #9","locality":"Sarasota","state":"FL","zipcode":"34238","streetNumber":"6055","route":"Clark Center Ave","aptSuite":"","website":"www.siteone.com","salesRep":"Marshall Caudill","phoneNum":"941-923-2517","email":"","coords":{"lat":27.2662506,"lng":-82.4756565}},{"name":"Site One #639","locality":"Branchburg","state":"NJ","zipcode":"08876","streetNumber":"00100","route":"Meister Ave","aptSuite":"","website":"www.siteone.com","salesRep":"Melissa Varrone","phoneNum":"908-707-8222","email":"","coords":{"lat":40.6025405,"lng":-74.7045921}},{"name":"Site One #672","locality":"Cincinnati","state":"OH","zipcode":"45241","streetNumber":"11245","route":"Mosteller Rd","aptSuite":"","website":"www.siteone.com","salesRep":"Andrew Rumpler","phoneNum":"513-771-1056","email":"","coords":{"lat":39.2754959,"lng":-84.4308472}},{"name":"Site One #266","locality":"New York","state":"NY","zipcode":"12065","streetNumber":"1653","route":"Route 9","aptSuite":"","website":"www.siteone.com","salesRep":"Matthew Morency","phoneNum":"518-371-4012","email":"","coords":{"lat":42.8589709,"lng":-73.7580363}},{"name":"Site One #674","locality":"Harrison","state":"OH","zipcode":"45030","streetNumber":"10051","route":"Simonson Rd","aptSuite":"","website":"www.siteone.com","salesRep":"Zac Ballard","phoneNum":"513-202-1740","email":"","coords":{"lat":39.2361783,"lng":-84.7749144}},{"name":"Site One #323","locality":"Laguna Hills","state":"CA","zipcode":"92653","streetNumber":"23432","route":"S Pointe Dr","aptSuite":"","website":"www.siteone.com","salesRep":"","phoneNum":"949-637-4460","email":"","coords":{"lat":33.6250009,"lng":-117.7209806}},{"name":"\"Landscape Supply","locality":"Maryland","state":"Upper Marlboro","zipcode":"MD","streetNumber":"20774","route":"671","aptSuite":"Commerce Dr.","website":"","salesRep":"Mid-Atlantic","phoneNum":"Scott Orndorff","email":"301-458-5625","coords":{"lat":38.8159473,"lng":-76.74969089999999}},{"name":"\"Landscape Supply","locality":"Virginia","state":"Roanoke","zipcode":"VA","streetNumber":"24016","route":"101","aptSuite":"Madison Ave NW","website":"","salesRep":"Mid-Atlantic","phoneNum":"Scott Orndorff","email":"301-458-5625","coords":{"lat":37.2724943,"lng":-79.9556424}},{"name":"\"Landscape Supply","locality":"Virginia","state":"Midlothian","zipcode":"VA","streetNumber":"23112","route":"2501","aptSuite":"Oak Lake Blvd","website":"","salesRep":"Mid-Atlantic","phoneNum":"Scott Orndorff","email":"301-458-5625","coords":{"lat":37.5061069,"lng":-77.6490005}},{"name":"\"Landscape Supply","locality":"Virginia","state":"Chantilly","zipcode":"VA","streetNumber":"20151","route":"14805","aptSuite":"Williard Rd","website":"","salesRep":"Mid-Atlantic","phoneNum":"Scott Orndorff","email":"301-458-5625","coords":{"lat":38.8942786,"lng":-77.43109919999999}},{"name":"Simplot Partners","locality":"Kapolei","state":"HI","zipcode":"96707","streetNumber":"91-262","route":"Olai St","aptSuite":"","website":"www.simplot.com","salesRep":"Pat Sherer","phoneNum":"208-850-0736","email":"patrick.sherer@simplot.com","coords":{"lat":21.3006399,"lng":-158.0979804}},{"name":"Genesis Green Supply","locality":"Glen Rock","state":"PA","zipcode":"17327","streetNumber":"10671","route":"Susquehanna Trail south","aptSuite":"","website":"www.genesisturfgrass.com","salesRep":"Todd Cowing","phoneNum":"443-790-0013","email":"todd@genesisgreensupply.com","coords":{"lat":39.8223413,"lng":-76.6934919}},{"name":"Simplot Partners","locality":"Caldwell","state":"ID","zipcode":"83605","streetNumber":"4107","route":"Challener way","aptSuite":"","website":"www.simplot.com","salesRep":"Travis Rose","phoneNum":"208-761-4194","email":"travis.rose@simplot.com","coords":{"lat":43.65522139999999,"lng":-116.6479133}},{"name":"Wilson Sports Turf","locality":"Lexington","state":"SC","zipcode":"29073","streetNumber":"29073","route":"1737 S Lake Dr","aptSuite":"","website":"wilsonandassociates@windstream.net","salesRep":"Alan Wilson","phoneNum":"803-600-4651","email":"alan@wilsonsportsturfsc.com","coords":{"lat":33.9157402,"lng":-81.22724939999999}},{"name":"Team All Sports","locality":"West Chester","state":"OH","zipcode":"45069","streetNumber":"8643","route":"Columbus Rd","aptSuite":"","website":"","salesRep":"Sean Rogers","phoneNum":"513-515-5815","email":"teamallsports@fuse.net","coords":{"lat":39.3290841,"lng":-84.3551325}},{"name":"Southern Country Contracting","locality":"LaGrange ","state":"KY","zipcode":"40056","streetNumber":"7600","route":"KY-146","aptSuite":"","website":"","salesRep":"Chris Miller","phoneNum":"502-773-1524","email":"sccontractingky@gmail.com","coords":{"lat":38.30258930000001,"lng":-85.4951427}},{"name":"Northwest Turf Solutions","locality":"Moses Lake","state":"WA","zipcode":"98837","streetNumber":"13305","route":"Rd 2 SE","aptSuite":"","website":"www.desertgreenturf.com","salesRep":"Nathan Cox","phoneNum":"509-750-1614","email":"nathan@desertgreenturf.com","coords":{"lat":47.0571135,"lng":-119.2088744}}]